Province,City,Latitude,Longitude
Abra,Bangued,17.6,120.617
Abra,Boliney,17.4,120.8
Abra,Bucay,17.533,120.717
Abra,Bucloc,17.45,120.85
Abra,Daguioman,17.45,120.917
Abra,Danglas,17.7,120.65
Abra,Dolores,17.64667,120.71083
Abra,La Paz,17.70556,120.69306
Abra,Lacub,17.667,120.95
Abra,Lagangilang,17.617,120.783
Abra,Lagayan,17.717,120.7
Abra,Langiden,17.583,120.567
Abra,Licuan-Baay,17.62694,120.83222
Abra,Luba,17.34917,120.69111
Abra,Malibcong,17.567,120.983
Abra,Manabo,17.467,120.7
Abra,Peñarrubia,17.567,120.65
Abra,Pidigan,17.567,120.583
Abra,Pilar,17.4175,120.59417
Abra,Sallapadan,17.467,120.767
Abra,San Isidro,17.467,120.6
Abra,San Juan,17.717,120.75
Abra,San Quintin,17.54306,120.51917
Abra,Tayum,17.617,120.65
Abra,Tineg,17.767,120.933
Abra,Tubo,17.167,120.717
Abra,Villaviciosa,17.433,120.633
Agusan del Norte,Butuan City,8.95,125.53
Agusan del Norte,Buenavista,8.967,125.417
Agusan del Norte,Cabadbaran,9.117,125.533
Agusan del Norte,Carmen,8.983,125.3
Agusan del Norte,Jabonga,9.35,125.517
Agusan del Norte,Kitcharao,9.45,125.567
Agusan del Norte,Las Nieves,8.733,125.6
Agusan del Norte,Magallanes,9.017,125.517
Agusan del Norte,Nasipit,,
Agusan del Norte,Remedios T. Romualdez,9.05361,125.58667
Agusan del Norte,Santiago,9.267,125.567
Agusan del Norte,Tubay,9.167,125.533
Agusan del Sur,Bayugan,8.717,125.75
Agusan del Sur,Bunawan,8.167,126.0
Agusan del Sur,Esperanza,8.683,125.65
Agusan del Sur,La Paz,8.267,125.8
Agusan del Sur,Loreto,8.183,125.85
Agusan del Sur,Prosperidad,8.6,125.917
Agusan del Sur,Rosario,8.383,126.0
Agusan del Sur,San Francisco,8.5,125.983
Agusan del Sur,San Luis,8.47806,125.74389
Agusan del Sur,Santa Josefa,7.983,126.033
Agusan del Sur,Sibagat,8.817,125.7
Agusan del Sur,Talacogon,8.45,125.783
Agusan del Sur,Trento,8.05,126.067
Agusan del Sur,Veruela,8.033,125.9
Aklan,Altavas,11.533,122.483
Aklan,Balete,11.55,122.383
Aklan,Banga,11.633,122.333
Aklan,Batan,11.583,122.5
Aklan,Buruanga,11.85,121.9
Aklan,Ibajay,11.817,122.167
Aklan,Kalibo,11.7,122.367
Aklan,Lezo,11.667,122.333
Aklan,Libacao,11.483,122.3
Aklan,Madalag,11.517,122.3
Aklan,Makato,11.7,122.283
Aklan,Malay,11.9,121.9083
Aklan,Malinao,11.65,122.3
Aklan,Nabas,11.833,122.083
Aklan,New Washington,11.65,122.433
Aklan,Numancia,11.7,122.333
Aklan,Tangalan,11.767,122.25
Albay,Legazpi City,13.13,123.73
Albay,Ligao City,13.217,123.517
Albay,Tabaco City,13.35944,123.73028
Albay,Bacacay,13.3,123.8
Albay,Camalig,13.133,123.667
Albay,Daraga,13.16194,123.69389
Albay,Guinobatan,13.183,123.6
Albay,Jovellar,13.067,123.6
Albay,Libon,13.3,123.433
Albay,Malilipot,13.317,123.733
Albay,Malinao,13.4,123.7
Albay,Manito,13.117,123.867
Albay,Oas,13.25889,123.49528
Albay,Pio Duran,13.033,123.45
Albay,Polangui,13.29222,123.48556
Albay,Rapu-Rapu,13.183,124.133
Albay,Santo Domingo,13.235,123.77694
Albay,Tiwi,13.45,123.683
Antique,Anini-y,10.433,121.933
Antique,Barbaza,11.2,122.05
Antique,Belison,10.717,122.267
Antique,Bugasong,11.05,122.067
Antique,Caluya,11.9,121.517
Antique,Culasi,11.417,122.067
Antique,Hamtic,10.7,121.983
Antique,Laua-an,11.15,122.05
Antique,Libertad,11.783,121.917
Antique,Pandan,11.717,122.1
Antique,Patnongon,10.917,121.983
Antique,San Jose,10.75,121.95
Antique,San Remigio,10.88,122.12
Antique,Sebaste,11.583,122.1
Antique,Sibalom,10.783,122.017
Antique,Tibiao,11.283,122.05
Antique,Tobias Fornier,10.517,121.95
Antique,Valderrama,11.0,122.133
Apayao,Calanasan,18.25,121.033
Apayao,Conner,17.8,121.333
Apayao,Flora,18.117,121.4
Apayao,Kabugao,18.017,121.183
Apayao,Luna,18.32583,121.35361
Apayao,Pudtol,18.15,121.283
Apayao,Santa Marcela,18.283,121.433
Aurora,Baler,15.767,121.567
Aurora,Casiguran,16.28333,122.04444
Aurora,Dilasag,16.4,122.217
Aurora,Dinalungan,16.1,121.77389
Aurora,Dingalan,15.383,121.4
Aurora,Dipaculao,15.983,121.633
Aurora,Maria Aurora,15.783,121.467
Aurora,San Luis,15.717,121.517
Basilan,Isabela City,6.7,121.97
Basilan,Akbar,6.65,122.217
Basilan,Al-Barka,6.467,122.183
Basilan,Hadji Mohammad Ajul,6.617,122.3
Basilan,Hadji Muhtamad,6.633,121.617
Basilan,Lamitan,6.65,122.133
Basilan,Lantawan,6.65,121.867
Basilan,Maluso,6.55,121.883
Basilan,Sumisip,6.417,121.983
Basilan,Tabuan-Lasa,6.35,121.967
Basilan,Tipo-Tipo,6.533,122.167
Basilan,Tuburan,6.6,122.2
Basilan,Ungkaya Pukan,6.5,122.117
Bataan,Balanga City,,
Bataan,Abucay,14.733,120.533
Bataan,Bagac,14.6,120.4
Bataan,Dinalupihan,14.883,120.467
Bataan,Hermosa,14.833,120.5
Bataan,Limay,14.567,120.6
Bataan,Mariveles,14.433,120.483
Bataan,Morong,14.683,120.267
Bataan,Orani,14.8,120.533
Bataan,Orion,14.617,120.583
Bataan,Pilar,14.667,120.567
Bataan,Samal,14.767,120.55
Batanes,Basco,20.4496778,121.9698694
Batanes,Itbayat,20.767,121.85
Batanes,Ivana,20.367,121.917
Batanes,Mahatao,20.417,121.95
Batanes,Sabtang,20.333,121.867
Batanes,Uyugan,20.35,121.933
Batangas,Batangas City,13.75,121.05
Batangas,Lipa City,13.9411,121.1622
Batangas,Tanauan City,14.083,121.15
Batangas,Agoncillo,13.933,120.933
Batangas,Alitagtag,13.867,121.0
Batangas,Balayan,13.933,120.733
Batangas,Balete,14.02722,121.09806
Batangas,Bauan,13.80194,121.01306
Batangas,Calaca,13.967,120.8
Batangas,Calatagan,13.833,120.633
Batangas,Cuenca,13.91667,121.04472
Batangas,Ibaan,13.817,121.133
Batangas,Laurel,14.05,120.9
Batangas,Lemery,13.92,120.88
Batangas,Lian,14.033,120.65
Batangas,Lobo,13.65,121.25
Batangas,Mabini,13.717,120.9
Batangas,Malvar,14.04056,121.15444
Batangas,Mataas na Kahoy,13.967,121.083
Batangas,Nasugbu,14.067,120.633
Batangas,Padre Garcia,13.883,121.217
Batangas,Rosario,13.85,121.2
Batangas,San Jose,13.87722,121.105
Batangas,San Juan,13.833,121.4
Batangas,San Luis,13.833,120.933
Batangas,San Nicolas,13.917,120.95
Batangas,San Pascual,13.8075,121.04194
Batangas,Santa Teresita,13.883,120.967
Batangas,Santo Tomas,14.10917,121.14194
Batangas,Taal,13.89417,120.92917
Batangas,Talisay,14.1,121.017
Batangas,Taysan,13.74194,121.22306
Batangas,Tingloy,13.65,120.867
Batangas,Tuy,14.017,120.733
Benguet,Baguio City,16.42,120.6
Benguet,Atok,16.58333,120.7
Benguet,Bakun,16.7922,120.6653
Benguet,Bokod,16.5,120.833
Benguet,Buguias,16.72306,120.82806
Benguet,Itogon,16.367,120.683
Benguet,Kabayan,16.617,120.85
Benguet,Kapangan,16.583,120.6
Benguet,Kibungan,16.7,120.667
Benguet,La Trinidad,16.45,120.567
Benguet,Mankayan,16.867,120.783
Benguet,Sablan,16.517,120.517
Benguet,Tuba,16.317,120.55
Benguet,Tublay,16.517,120.617
Biliran,Almeria,11.617,124.383
Biliran,Biliran,11.467,124.483
Biliran,Cabucgayan,11.483,124.567
Biliran,Caibiran,11.567,124.583
Biliran,Culaba,11.65,124.533
Biliran,Kawayan,11.683,124.367
Biliran,Maripipi,11.783,124.333
Biliran,Naval,11.583,124.45
Bohol,Tagbilaran City,9.65,123.85
Bohol,Alburquerque,9.6,123.95
Bohol,Alicia,9.9,124.45
Bohol,Anda,9.75,124.57
Bohol,Antequera,9.78,123.9
Bohol,Baclayon,9.63,123.9
Bohol,Balilihan,9.75,123.97
Bohol,Batuan,9.8,124.13
Bohol,Bien Unido,10.13,124.38
Bohol,Bilar,9.7,124.1
Bohol,Buenavista,10.08,124.12
Bohol,Calape,9.88,123.88
Bohol,Candijay,9.82,124.5
Bohol,Carmen,9.82,124.2
Bohol,Catigbian,9.83,124.03
Bohol,Clarin,9.97,124.02
Bohol,Corella,9.68,123.92
Bohol,Cortes,9.72,123.88
Bohol,Dagohoy,9.92,124.28
Bohol,Danao,10.02,124.27
Bohol,Dauis,9.62,123.85
Bohol,Dimiao,9.62,124.17
Bohol,Duero,9.72,124.4
Bohol,Garcia Hernandez,9.62,124.3
Bohol,Getafe,10.15,124.15
Bohol,Guindulman,9.77,124.48
Bohol,Inabanga,10.03,124.07
Bohol,Jagna,9.65,124.37
Bohol,Lila,9.6,124.1
Bohol,Loay,9.6,124.02
Bohol,Loboc,9.63,124.03
Bohol,Loon,9.8,123.8
Bohol,Mabini,9.87,124.52
Bohol,Maribojoc,9.75,123.83
Bohol,Panglao,9.58,123.75
Bohol,Pilar,9.83,124.33
Bohol,President Carlos P. Garcia,10.12,124.55
Bohol,Sagbayan,9.92,124.1
Bohol,San Isidro,9.8,124.3
Bohol,San Miguel,10.0,124.32
Bohol,Sevilla,9.7,124.05
Bohol,Sierra Bullones,9.82,124.28
Bohol,Sikatuna,9.68,123.97
Bohol,Talibon,10.12,124.28
Bohol,Trinidad,10.05,124.35
Bohol,Tubigon,9.95,123.97
Bohol,Ubay,10.05,124.47
Bohol,Valencia,9.62,124.2
Bukidnon,Malaybalay City,8.15,125.133
Bukidnon,Valencia City,7.9,125.083
Bukidnon,Baungon,8.25,124.717
Bukidnon,Cabanglasan,8.067,125.317
Bukidnon,Damulog,7.483,124.933
Bukidnon,Dangcagan,7.617,125.0
Bukidnon,Don Carlos,7.683,125.0
Bukidnon,Impasug-ong,8.3,125.0
Bukidnon,Kadingilan,7.6,124.917
Bukidnon,Kalilangan,7.75,124.75
Bukidnon,Kibawe,7.567,124.983
Bukidnon,Kitaotao,7.633,125.017
Bukidnon,Lantapan,8.05,124.983
Bukidnon,Libona,8.333,124.733
Bukidnon,Malitbog,8.533,124.883
Bukidnon,Manolo Fortich,8.367,124.867
Bukidnon,Maramag,7.767,125.0
Bukidnon,Pangantucan,7.833,124.833
Bukidnon,Quezon,7.733,125.1
Bukidnon,San Fernando,7.917,125.333
Bukidnon,Sumilao,8.283,124.95
Bukidnon,Talakag,8.233,124.6
Bulacan,Malolos City,14.84333,120.81139
Bulacan,Meycauayan City,14.733,120.95
Bulacan,San Jose del Monte City,14.81389,121.04528
Bulacan,Angat,14.933,121.033
Bulacan,Balagtas,14.817,120.867
Bulacan,Baliuag,14.95,120.883
Bulacan,Bocaue,14.8,120.933
Bulacan,Bulacan,14.79306,120.87889
Bulacan,Bustos,14.95,120.917
Bulacan,Calumpit,14.917,120.767
Bulacan,Doña Remedios Trinidad,15.0,121.083
Bulacan,Guiguinto,14.833,120.883
Bulacan,Hagonoy,14.833,120.733
Bulacan,Marilao,14.75806,120.94806
Bulacan,Norzagaray,14.917,121.05
Bulacan,Obando,14.7,120.917
Bulacan,Pandi,14.867,120.95
Bulacan,Paombong,14.83111,120.78917
Bulacan,Plaridel,14.883,120.85
Bulacan,Pulilan,14.9,120.85
Bulacan,San Ildefonso,15.07889,120.94194
Bulacan,San Miguel,15.14583,120.97833
Bulacan,San Rafael,14.95,120.967
Bulacan,Santa Maria,14.817,120.95
Cagayan,Tuguegarao City,17.617,121.717
Cagayan,Abulug,18.45,121.45
Cagayan,Alcala,17.9,121.65
Cagayan,Allacapan,18.25,121.583
Cagayan,Amulung,17.833,121.733
Cagayan,Aparri,18.333,121.667
Cagayan,Baggao,17.917,121.967
Cagayan,Ballesteros,18.4,121.517
Cagayan,Buguey,18.283,121.833
Cagayan,Calayan,19.267,121.483
Cagayan,Camalaniugan,18.27444,121.67361
Cagayan,Claveria,18.6075,121.085
Cagayan,Enrile,17.55,121.7
Cagayan,Gattaran,18.067,121.65
Cagayan,Gonzaga,18.267,122.0
Cagayan,Iguig,17.75,121.733
Cagayan,Lal-lo,18.2,121.667
Cagayan,Lasam,18.067,121.6
Cagayan,Pamplona,18.45,121.34167
Cagayan,Peñablanca,17.633,121.783
Cagayan,Piat,17.79111,121.47611
Cagayan,Rizal,17.85,121.35
Cagayan,Sanchez-Mira,18.567,121.233
Cagayan,Santa Ana,18.467,122.15
Cagayan,Santa Praxedes,18.567,121.0
Cagayan,Santa Teresita,18.25,121.883
Cagayan,Santo Niño,17.883,121.567
Cagayan,Solana,17.655,121.68889
Cagayan,Tuao,17.733,121.45
Camarines Norte,Basud,14.067,122.967
Camarines Norte,Capalonga,14.333,122.5
Camarines Norte,Daet,14.117,122.95
Camarines Norte,Jose Panganiban,14.3,122.7
Camarines Norte,Labo,14.017,122.35
Camarines Norte,Mercedes,14.1,123.017
Camarines Norte,Paracale,14.283,122.783
Camarines Norte,San Lorenzo Ruiz,14.117,122.867
Camarines Norte,San Vicente,14.1,122.867
Camarines Norte,Santa Elena,14.2,122.383
Camarines Norte,Talisay,14.133,122.917
Camarines Norte,Vinzons,14.183,122.9
Camarines Sur,Iriga City,13.417,123.417
Camarines Sur,Naga City,13.62,123.17
Camarines Sur,Baao,13.45611,123.36389
Camarines Sur,Balatan,13.317,123.233
Camarines Sur,Bato,13.35611,123.36389
Camarines Sur,Bombon,13.683,123.2
Camarines Sur,Buhi,13.433,123.517
Camarines Sur,Bula,13.467,123.283
Camarines Sur,Cabusao,13.717,123.1
Camarines Sur,Calabanga,13.717,123.233
Camarines Sur,Camaligan,13.625,123.15694
Camarines Sur,Canaman,13.65,123.167
Camarines Sur,Caramoan,13.767,123.867
Camarines Sur,Del Gallego,13.917,122.6
Camarines Sur,Gainza,13.617,123.15
Camarines Sur,Garchitorena,13.883,123.7
Camarines Sur,Goa,13.7,123.5
Camarines Sur,Lagonoy,13.73861,123.52056
Camarines Sur,Libmanan,13.7,123.067
Camarines Sur,Lupi,13.817,122.9
Camarines Sur,Magarao,13.667,123.183
Camarines Sur,Milaor,13.6,123.183
Camarines Sur,Minalabac,13.567,123.183
Camarines Sur,Nabua,13.40139,123.37639
Camarines Sur,Ocampo,13.567,123.383
Camarines Sur,Pamplona,13.6,123.083
Camarines Sur,Pasacao,13.517,123.05
Camarines Sur,Pili,13.583,123.3
Camarines Sur,Presentacion,13.717,123.75
Camarines Sur,Ragay,13.817,122.783
Camarines Sur,Sagñay,13.60417,123.52
Camarines Sur,San Fernando,13.567,123.15
Camarines Sur,San Jose,13.717,123.517
Camarines Sur,Sipocot,13.767,122.983
Camarines Sur,Siruma,14.0,123.25
Camarines Sur,Tigaon,13.633,123.5
Camarines Sur,Tinambac,13.817,123.333
Camiguin,Catarman,9.133,124.683
Camiguin,Guinsiliban,9.1,124.783
Camiguin,Mahinog,9.15,124.783
Camiguin,Mambajao,9.25,124.717
Camiguin,Sagay,9.117,124.717
Capiz,Roxas City,11.583,122.75
Capiz,Cuartero,11.35,122.667
Capiz,Dao,11.4,122.683
Capiz,Dumalag,11.3,122.617
Capiz,Dumarao,11.267,122.683
Capiz,Ivisan,11.517,122.683
Capiz,Jamindan,11.4,122.5
Capiz,Ma-ayon,11.383,122.783
Capiz,Mambusao,11.433,122.6
Capiz,Panay,11.55,122.8
Capiz,Panitan,11.467,122.767
Capiz,Pilar,11.483,123.0
Capiz,Pontevedra,11.483,122.833
Capiz,President Roxas,11.433,122.933
Capiz,Sapi-an,11.5,122.6
Capiz,Sigma,11.417,122.667
Capiz,Tapaz,11.267,122.533
Catanduanes,Bagamanoc,13.933,124.283
Catanduanes,Baras,13.667,124.367
Catanduanes,Bato,13.6,124.3
Catanduanes,Caramoran,13.983,124.133
Catanduanes,Gigmoto,13.783,124.383
Catanduanes,Pandan,14.05,124.167
Catanduanes,Panganiban,13.9,124.3
Catanduanes,San Andres,13.6,124.1
Catanduanes,San Miguel,13.633,124.3
Catanduanes,Viga,13.867,124.3
Catanduanes,Virac,13.583,124.233
Cavite,Cavite City,14.483,120.9
Cavite,Dasmariñas City,14.32639,120.93611
Cavite,Tagaytay City,14.1,120.933
Cavite,Trece Martires City,14.283,120.85
Cavite,Alfonso,14.14083,120.85389
Cavite,Amadeo,14.167,120.917
Cavite,Bacoor,14.45,120.95
Cavite,Carmona,14.317,121.05
Cavite,General Mariano Alvarez,14.3,121.0
Cavite,General Emilio Aguinaldo,14.183,120.8
Cavite,General Trias,14.383,120.883
Cavite,Imus,14.4,120.933
Cavite,Indang,14.19528,120.87694
Cavite,Kawit,14.433,120.9
Cavite,Magallanes,14.18833,120.7575
Cavite,Maragondon,14.27333,120.73833
Cavite,Mendez,14.12861,120.90583
Cavite,Naic,14.317,120.767
Cavite,Noveleta,14.433,120.883
Cavite,Rosario,14.417,120.85
Cavite,Silang,14.233,120.983
Cavite,Tanza,14.4,120.833
Cavite,Ternate,14.283,120.717
Cebu,Bogo City,11.03,124.0
Cebu,Cebu City,10.32,123.75
Cebu,Carcar City,10.1,123.63
Cebu,Danao City,10.52,124.03
Cebu,Lapu-Lapu City,10.31083,124.015222
Cebu,Mandaue City,10.33,123.93
Cebu,Naga City,10.22,123.75
Cebu,Talisay City,10.25,123.83
Cebu,Toledo City,10.38,123.65
Cebu,Alcantara,9.98,123.4
Cebu,Alcoy,9.68,123.5
Cebu,Alegria,9.77,123.38
Cebu,Aloguinsan,10.22,123.55
Cebu,Argao,9.88,123.6
Cebu,Asturias,10.57,123.72
Cebu,Badian,9.87,123.4
Cebu,Balamban,10.5,123.72
Cebu,Bantayan,11.17,123.72
Cebu,Barili,10.12,123.52
Cebu,Boljoon,9.63,123.48
Cebu,Borbon,10.83,124.03
Cebu,Carmen,10.58,124.02
Cebu,Catmon,10.72,124.0
Cebu,Compostela,10.45,124.0
Cebu,Consolacion,10.5,123.95
Cebu,Cordoba,10.25,123.95
Cebu,Daanbantayan,11.25,124.0
Cebu,Dalaguete,9.77,123.53
Cebu,Dumanjug,10.05,123.43
Cebu,Ginatilan,9.6,123.35
Cebu,Liloan,10.4,123.98
Cebu,Madridejos,11.27,123.73
Cebu,Malabuyoc,9.65,123.33
Cebu,Medellin,11.13,123.97
Cebu,Minglanilla,10.25,123.78
Cebu,Moalboal,9.95,123.4
Cebu,Oslob,9.55,123.4
Cebu,Pilar,10.8,124.55
Cebu,Pinamungahan,10.27,123.58
Cebu,Poro,10.63,124.42
Cebu,Ronda,10.0,123.4
Cebu,Samboan,9.53,123.3
Cebu,San Fernando,10.17,123.7
Cebu,San Francisco,10.65,124.35
Cebu,San Remigio,11.05,123.98
Cebu,Santa Fe,11.15,123.82
Cebu,Santander,9.45,123.33
Cebu,Sibonga,10.03,123.57
Cebu,Sogod,10.75,124.0
Cebu,Tabogon,10.93,124.03
Cebu,Tabuelan,10.82,123.87
Cebu,Tuburan,10.73,123.83
Cebu,Tudela,10.63,124.47
Compostela Valley,Compostela,7.667,126.083
Compostela Valley,Laak,7.833,125.817
Compostela Valley,Mabini,7.3,125.85
Compostela Valley,Maco,7.367,125.85
Compostela Valley,Maragusan,7.5,126.0
Compostela Valley,Mawab,7.5,125.933
Compostela Valley,Monkayo,7.817,126.05
Compostela Valley,Montevista,7.7,125.983
Compostela Valley,Nabunturan,7.6,125.967
Compostela Valley,New Bataan,7.533,126.133
Compostela Valley,Pantukan,7.15,125.95
Cotabato,Kidapawan City,7.017,125.083
Cotabato,Alamada,7.333,124.567
Cotabato,Aleosan,7.15,124.583
Cotabato,Antipas,7.25,125.05
Cotabato,Arakan,7.35,125.133
Cotabato,Banisilan,7.5,124.7
Cotabato,Carmen,7.2,124.783
Cotabato,Kabacan,7.117,124.817
Cotabato,Libungan,7.25,124.517
Cotabato,Mlang,,
Cotabato,Magpet,7.1,125.117
Cotabato,Makilala,6.967,125.083
Cotabato,Matalam,7.083,124.9
Cotabato,Midsayap,7.1917,124.533
Cotabato,Pigkawayan,7.283,124.433
Cotabato,Pikit,7.05,124.667
Cotabato,President Roxas,7.15,125.05
Cotabato,Tulunan,6.833,124.883
Davao del Norte,Panabo City,7.30833,125.68333
Davao del Norte,Island Garden City of Samal,,
Davao del Norte,Tagum City,7.45,125.8
Davao del Norte,Asuncion,7.583,125.767
Davao del Norte,Braulio E. Dujali,7.45,125.683
Davao del Norte,Carmen,7.36056,125.70639
Davao del Norte,Kapalong,7.75,125.5
Davao del Norte,New Corella,7.583,125.833
Davao del Norte,San Isidro,7.75,125.733
Davao del Norte,Santo Tomas,7.533,125.617
Davao del Norte,Talaingod,7.617,125.617
Davao del Sur,Davao City,,
Davao del Sur,Digos City,6.75,125.35
Davao del Sur,Bansalan,6.783,125.217
Davao del Sur,Don Marcelino,6.267,125.667
Davao del Sur,Hagonoy,6.683,125.3
Davao del Sur,Jose Abad Santos,5.917,125.65
Davao del Sur,Kiblawan,6.617,125.217
Davao del Sur,Magsaysay,6.767,125.183
Davao del Sur,Malalag,6.6,125.4
Davao del Sur,Malita,6.4,125.6
Davao del Sur,Matanao,6.75,125.233
Davao del Sur,Padada,6.633,125.35
Davao del Sur,Santa Cruz,6.833,125.417
Davao del Sur,Santa Maria,6.55,125.467
Davao del Sur,Sarangani,5.4,125.467
Davao del Sur,Sulop,6.6,125.35
Davao Oriental,Mati City,6.95,126.233
Davao Oriental,Baganga,7.567,126.567
Davao Oriental,Banaybanay,7.1,126.067
Davao Oriental,Boston,7.867,126.367
Davao Oriental,Caraga,7.333,126.567
Davao Oriental,Cateel,7.783,126.45
Davao Oriental,Governor Generoso,6.65,126.067
Davao Oriental,Lupon,6.9,126.0
Davao Oriental,Manay,7.217,126.533
Davao Oriental,San Isidro,6.833,126.083
Davao Oriental,Tarragona,7.05,126.45
Eastern Samar,Arteche,12.267,125.367
Eastern Samar,Balangiga,11.117,125.383
Eastern Samar,Balangkayan,11.467,125.5
Eastern Samar,Borongan,11.6,125.43
Eastern Samar,Can-avid,12.0,125.45
Eastern Samar,Dolores,12.05,125.483
Eastern Samar,General MacArthur,11.25,125.533
Eastern Samar,Giporlos,11.117,125.45
Eastern Samar,Guiuan,11.033,125.733
Eastern Samar,Hernani,11.333,125.583
Eastern Samar,Jipapad,12.283,125.233
Eastern Samar,Lawaan,11.15,125.3
Eastern Samar,Llorente,11.417,125.533
Eastern Samar,Maslog,12.1,125.167
Eastern Samar,Maydolong,11.5,125.5
Eastern Samar,Mercedes,11.1,125.717
Eastern Samar,Oras,12.133,125.433
Eastern Samar,Quinapondan,11.15,125.517
Eastern Samar,Salcedo,11.15,125.667
Eastern Samar,San Julian,11.75,125.45
Eastern Samar,San Policarpo,12.183,125.5
Eastern Samar,Sulat,11.817,125.45
Eastern Samar,Taft,11.9,125.417
Guimaras,Buenavista,10.7,122.63
Guimaras,Jordan,10.6,122.6
Guimaras,Nueva Valencia,10.517,122.533
Guimaras,San Lorenzo,10.65,122.717
Guimaras,Sibunag,10.5,122.667
Ifugao,Aguinaldo,16.783,121.317
Ifugao,Alfonso Lista,16.9,121.517
Ifugao,Asipulo,16.6,121.05
Ifugao,Banaue,16.91889,121.05889
Ifugao,Hingyon,16.833,121.117
Ifugao,Hungduan,16.833,121.0
Ifugao,Kiangan,16.783,121.083
Ifugao,Lagawe,16.817,121.1
Ifugao,Lamut,16.65,121.225
Ifugao,Mayoyao,16.967,121.217
Ifugao,Tinoc,16.7,120.9
Ilocos Norte,Batac City,18.05,120.567
Ilocos Norte,Laoag City,18.183,120.583
Ilocos Norte,Adams,18.467,120.9
Ilocos Norte,Bacarra,18.25,120.617
Ilocos Norte,Badoc,17.933,120.467
Ilocos Norte,Bangui,18.533,120.767
Ilocos Norte,Banna,17.983,120.65
Ilocos Norte,Burgos,18.51611,120.64611
Ilocos Norte,Carasi,18.2,120.867
Ilocos Norte,Currimao,18.017,120.483
Ilocos Norte,Dingras,18.117,120.7
Ilocos Norte,Dumalneg,18.5,120.817
Ilocos Norte,Marcos,18.05,120.683
Ilocos Norte,Nueva Era,17.917,120.667
Ilocos Norte,Pagudpud,18.567,120.8
Ilocos Norte,Paoay,18.05,120.517
Ilocos Norte,Pasuquin,18.333,120.617
Ilocos Norte,Piddig,18.167,120.733
Ilocos Norte,Pinili,17.95389,120.52694
Ilocos Norte,San Nicolas,18.1725,120.59583
Ilocos Norte,Sarrat,18.167,120.65
Ilocos Norte,Solsona,18.1,120.767
Ilocos Norte,Vintar,18.23,120.64194
Ilocos Sur,Candon City,17.2,120.45
Ilocos Sur,Vigan City,17.57,120.38
Ilocos Sur,Alilem,16.883,120.533
Ilocos Sur,Banayoyo,17.233,120.483
Ilocos Sur,Bantay,17.583,120.383
Ilocos Sur,Burgos,17.333,120.5
Ilocos Sur,Cabugao,17.8,120.45
Ilocos Sur,Caoayan,17.533,120.4
Ilocos Sur,Cervantes,16.99167,120.73333
Ilocos Sur,Galimuyod,17.183,120.467
Ilocos Sur,Gregorio Del Pilar,17.133,120.617
Ilocos Sur,Lidlidda,17.267,120.517
Ilocos Sur,Magsingal,17.68333,120.425
Ilocos Sur,Nagbukel,17.45,120.55
Ilocos Sur,Narvacan,17.417,120.483
Ilocos Sur,Quirino,17.15,120.667
Ilocos Sur,Salcedo,17.15,120.533
Ilocos Sur,San Emilio,17.233,120.617
Ilocos Sur,San Esteban,17.333,120.45
Ilocos Sur,San Ildefonso,17.617,120.4
Ilocos Sur,San Juan,17.72917,120.46083
Ilocos Sur,San Vicente,17.58111,120.34694
Ilocos Sur,Santa,17.49056,120.43722
Ilocos Sur,Santa Catalina,17.6,120.367
Ilocos Sur,Santa Cruz,17.02,120.47472
Ilocos Sur,Santa Lucia,17.117,120.45
Ilocos Sur,Santa Maria,17.35861,120.49806
Ilocos Sur,Santiago,17.3,120.45
Ilocos Sur,Santo Domingo,17.633,120.417
Ilocos Sur,Sigay,17.033,120.583
Ilocos Sur,Sinait,17.86611,120.45806
Ilocos Sur,Sugpon,16.85,120.517
Ilocos Sur,Suyo,16.98,120.52694
Ilocos Sur,Tagudin,16.933,120.45
Iloilo,Iloilo City,11.0,122.67
Iloilo,Passi City,11.1,122.633
Iloilo,Ajuy,11.167,123.017
Iloilo,Alimodian,10.817,122.433
Iloilo,Anilao,11.0,122.717
Iloilo,Badiangan,11.0,122.517
Iloilo,Balasan,11.467,123.083
Iloilo,Banate,11.05,122.783
Iloilo,Barotac Nuevo,10.9,122.7
Iloilo,Barotac Viejo,11.05,122.85
Iloilo,Batad,11.417,123.117
Iloilo,Bingawan,11.233,122.567
Iloilo,Cabatuan,10.883,122.483
Iloilo,Calinog,11.133,122.5
Iloilo,Carles,11.567,123.133
Iloilo,Concepcion,11.2,123.1
Iloilo,Dingle,11.05,122.667
Iloilo,Dueñas,11.067,122.617
Iloilo,Dumangas,10.833,122.717
Iloilo,Estancia,11.45,123.15
Iloilo,Guimbal,10.667,122.317
Iloilo,Igbaras,10.717,122.267
Iloilo,Janiuay,10.95,122.5
Iloilo,Lambunao,11.05,122.483
Iloilo,Leganes,10.783,122.583
Iloilo,Lemery,11.233,122.933
Iloilo,Leon,10.783,122.383
Iloilo,Maasin,10.883,122.433
Iloilo,Miagao,10.65,122.233
Iloilo,Mina,10.933,122.583
Iloilo,New Lucena,10.883,122.6
Iloilo,Oton,10.7,122.467
Iloilo,Pavia,10.775,122.54194
Iloilo,Pototan,10.95,122.633
Iloilo,San Dionisio,11.267,123.083
Iloilo,San Enrique,11.067,122.65
Iloilo,San Joaquin,10.6,122.083
Iloilo,San Miguel,10.783,122.467
Iloilo,San Rafael,11.167,122.833
Iloilo,Santa Barbara,10.883,122.483
Iloilo,Sara,11.25,123.017
Iloilo,Tigbauan,10.717,122.383
Iloilo,Tubungan,10.783,122.3
Iloilo,Zarraga,10.817,122.6
Isabela,Cauayan City,16.767,121.783
Isabela,Santiago City,-33.45,-70.667
Isabela,Alicia,16.783,121.7
Isabela,Angadanan,16.75,121.75
Isabela,Aurora,16.99194,121.63694
Isabela,Benito Soliven,16.983,121.95
Isabela,Burgos,17.067,121.7
Isabela,Cabagan,17.433,121.767
Isabela,Cabatuan,16.95889,121.66917
Isabela,Cordon,16.667,121.45
Isabela,Delfin Albano,17.317,121.783
Isabela,Dinapigue,16.667,122.35
Isabela,Divilacan,17.333,122.3
Isabela,Echague,16.7,121.65
Isabela,Gamu,17.05,121.833
Isabela,Ilagan City,17.13,121.88
Isabela,Jones,16.55806,121.70694
Isabela,Luna,16.967,121.733
Isabela,Maconacon,17.433,122.233
Isabela,Mallig,17.2,121.617
Isabela,Naguilian,17.02667,121.835
Isabela,Palanan,17.05889,122.43
Isabela,Quezon,17.317,121.617
Isabela,Quirino,17.133,121.7
Isabela,Ramon,16.783,121.533
Isabela,Reina Mercedes,16.983,121.783
Isabela,Roxas,17.117,121.617
Isabela,San Agustin,16.517,121.75
Isabela,San Guillermo,16.767,121.8
Isabela,San Isidro,16.867,121.767
Isabela,San Manuel,17.017,121.633
Isabela,San Mariano,16.983,122.017
Isabela,San Mateo,16.883,121.583
Isabela,San Pablo,17.467,121.983
Isabela,Santa Maria,17.467,121.75
Isabela,Santo Tomas,17.4,121.767
Isabela,Tumauini,17.267,121.8
Kalinga,Tabuk,17.45,121.45833
Kalinga,Balbalan,17.45,121.15
Kalinga,Lubuagan,17.35,121.183
Kalinga,Pasil,17.383,121.15
Kalinga,Pinukpuk,17.6,121.367
Kalinga,Rizal,17.5,121.6
Kalinga,Tanudan,17.3,121.233
Kalinga,Tinglayan,17.283,121.167
La Union,San Fernando City,16.617,120.317
La Union,Agoo,16.325,120.36861
La Union,Aringay,16.383,120.417
La Union,Bacnotan,16.717,120.35
La Union,Bagulin,16.60833,120.43944
La Union,Balaoan,16.817,120.4
La Union,Bangar,16.89806,120.42306
La Union,Bauang,16.53083,120.33306
La Union,Burgos,16.517,120.467
La Union,Caba,16.433,120.35
La Union,Luna,16.85389,120.38111
La Union,Naguilian,16.533,120.4
La Union,Pugo,16.283,120.483
La Union,Rosario,16.23194,120.48806
La Union,San Gabriel,16.675,120.4
La Union,San Juan,16.66889,120.34111
La Union,Santo Tomas,16.26361,120.39389
La Union,Santol,16.767,120.45
La Union,Sudipen,16.9,120.45
La Union,Tubao,16.35,120.417
Laguna,Biñan City,14.33,121.08
Laguna,Calamba City,14.22,121.17
Laguna,San Pablo City,14.07,121.32
Laguna,Santa Rosa City,14.32,121.12
Laguna,Alaminos,14.06306,121.24806
Laguna,Bay,14.183,121.283
Laguna,Cabuyao,14.27833,121.12472
Laguna,Calauan,14.15,121.317
Laguna,Cavinti,14.25,121.517
Laguna,Famy,14.433,121.45
Laguna,Kalayaan,14.35,121.567
Laguna,Liliw,14.133,121.433
Laguna,Los Baños,14.167,121.217
Laguna,Luisiana,14.183,121.517
Laguna,Lumban,14.29806,121.46
Laguna,Mabitac,14.4275,121.42667
Laguna,Magdalena,14.2,121.433
Laguna,Majayjay,14.15,121.467
Laguna,Nagcarlan,14.133,121.417
Laguna,Paete,14.367,121.483
Laguna,Pagsanjan,14.27306,121.45389
Laguna,Pakil,14.383,121.483
Laguna,Pangil,14.40306,121.46611
Laguna,Pila,14.233,121.367
Laguna,Rizal,14.10917,121.39444
Laguna,San Pedro,14.3583,121.0583
Laguna,Santa Cruz,14.27861,121.41556
Laguna,Santa Maria,14.47,121.42611
Laguna,Siniloan,14.417,121.45
Laguna,Victoria,14.22694,121.32806
Lanao del Norte,Iligan City,8.23,124.25
Lanao del Norte,Bacolod,8.183,124.017
Lanao del Norte,Baloi,8.117,124.217
Lanao del Norte,Baroy,8.033,123.783
Lanao del Norte,Kapatagan,7.9,123.767
Lanao del Norte,Kauswagan,8.183,124.083
Lanao del Norte,Kolambugan,8.117,123.9
Lanao del Norte,Lala,7.967,123.75
Lanao del Norte,Linamon,8.183,124.167
Lanao del Norte,Magsaysay,8.033,123.917
Lanao del Norte,Maigo,8.15,123.967
Lanao del Norte,Matungao,8.133,124.167
Lanao del Norte,Munai,7.983,124.067
Lanao del Norte,Nunungan,7.817,123.967
Lanao del Norte,Pantao Ragat,8.05,124.15
Lanao del Norte,Pantar,8.067,124.267
Lanao del Norte,Poona Piagapo,8.083,124.083
Lanao del Norte,Salvador,7.9,123.85
Lanao del Norte,Sapad,7.85,123.833
Lanao del Norte,Sultan Naga Dimaporo,7.783,123.75
Lanao del Norte,Tagoloan,8.133,124.267
Lanao del Norte,Tangcal,8.0,124.0
Lanao del Norte,Tubod,8.05,123.8
Lanao del Sur,Marawi City,8.0,124.3
Lanao del Sur,Bacolod-Kalawi,7.85,124.133
Lanao del Sur,Balabagan,7.533,124.117
Lanao del Sur,Balindong,7.917,124.2
Lanao del Sur,Bayang,7.79306,124.19194
Lanao del Sur,Binidayan,7.8,124.167
Lanao del Sur,Buadiposo-Buntong,7.967,124.383
Lanao del Sur,Bubong,8.017,124.483
Lanao del Sur,Bumbaran,7.8,124.65
Lanao del Sur,Butig,7.717,124.3
Lanao del Sur,Calanogas,7.75,124.1
Lanao del Sur,Ditsaan-Ramain,7.967,124.35
Lanao del Sur,Ganassi,7.833,124.1
Lanao del Sur,Kapai,8.083,124.4
Lanao del Sur,Kapatagan,7.45,124.133
Lanao del Sur,Lumba-Bayabao,7.883,124.383
Lanao del Sur,Lumbaca-Unayan,7.767,124.25
Lanao del Sur,Lumbatan,7.783,124.25
Lanao del Sur,Lumbayanague,7.783,124.283
Lanao del Sur,Madalum,7.85,124.117
Lanao del Sur,Madamba,7.883,124.067
Lanao del Sur,Maguing,7.9,124.4
Lanao del Sur,Malabang,7.583,124.067
Lanao del Sur,Marantao,7.95,124.233
Lanao del Sur,Marogong,7.667,124.15
Lanao del Sur,Masiu,7.817,124.317
Lanao del Sur,Mulondo,7.933,124.383
Lanao del Sur,Pagayawan,7.733,124.117
Lanao del Sur,Piagapo,8.0,124.2
Lanao del Sur,Poona Bayabao,7.85,124.35
Lanao del Sur,Pualas,7.817,124.067
Lanao del Sur,Saguiaran,8.033,124.267
Lanao del Sur,Sultan Dumalondong,7.67778,124.26778
Lanao del Sur,Picong,7.683,123.95
Lanao del Sur,Tagoloan II,8.10917,124.43917
Lanao del Sur,Tamparan,7.883,124.333
Lanao del Sur,Taraka,7.9,124.35
Lanao del Sur,Tubaran,7.717,124.167
Lanao del Sur,Tugaya,7.883,124.167
Lanao del Sur,Wao,7.683,124.683
Leyte,Ormoc City,11.02,124.62
Leyte,Tacloban City,11.24,125.0
Leyte,Abuyog,10.733,125.017
Leyte,Alangalang,11.2,124.85
Leyte,Albuera,10.917,124.7
Leyte,Babatngon,11.417,124.85
Leyte,Barugo,11.317,124.733
Leyte,Bato,10.333,124.8
Leyte,Baybay,10.683,124.8
Leyte,Burauen,10.983,124.9
Leyte,Calubian,11.45,124.417
Leyte,Capoocan,11.283,124.65
Leyte,Carigara,11.3,124.683
Leyte,Dagami,11.06111,124.90306
Leyte,Dulag,10.95,125.033
Leyte,Hilongos,10.367,124.75
Leyte,Hindang,10.45,124.8
Leyte,Inopacan,10.5,124.75
Leyte,Isabel,10.933,124.433
Leyte,Jaro,11.183,124.783
Leyte,Javier,10.8,124.933
Leyte,Julita,10.967,124.967
Leyte,Kananga,11.183,124.567
Leyte,La Paz,10.883,124.95
Leyte,Leyte,11.367,124.483
Leyte,Liloan,,
Leyte,MacArthur,10.85,124.95
Leyte,Mahaplag,10.583,124.983
Leyte,Matag-ob,11.117,124.467
Leyte,Matalom,10.283,124.8
Leyte,Mayorga,10.9,125.0
Leyte,Merida,10.917,124.533
Leyte,Palo,11.1575,124.99083
Leyte,Palompon,11.05,124.383
Leyte,Pastrana,11.133,124.883
Leyte,San Isidro,11.417,124.35
Leyte,San Miguel,11.267,124.833
Leyte,Santa Fe,11.183,124.917
Leyte,Sogod,,
Leyte,Tabango,11.317,124.367
Leyte,Tabontabon,11.03,124.97
Leyte,Tanauan,11.12,125.02
Leyte,Tolosa,11.033,125.017
Leyte,Tunga,11.25,124.75
Leyte,Villaba,11.217,124.4
Maguindanao,Cotabato City,7.2,124.85
Maguindanao,Ampatuan,6.867,124.467
Maguindanao,Barira,7.483,124.3
Maguindanao,Buldon,7.517,124.367
Maguindanao,Buluan,6.86667,124.75
Maguindanao,Datu Abdullah Sangki,6.751722,124.491861
Maguindanao,Datu Anggal Midtimbang,6.93333,124.33333
Maguindanao,Datu Blah T. Sinsuat,6.92278,123.96833
Maguindanao,Datu Hoffer Ampatuan,6.8666694,124.45
Maguindanao,Datu Montawal,7.1,124.76667
Maguindanao,Datu Odin Sinsuat,7.18889,124.18389
Maguindanao,Datu Paglas,6.76694,124.85
Maguindanao,Datu Piang,7.03333,124.5
Maguindanao,Datu Salibo,7.0166694,124.5
Maguindanao,Datu Saudi-Ampatuan,6.95722,124.44444
Maguindanao,Datu Unsay,6.92083,124.45333
Maguindanao,General Salipada K. Pendatun,6.79694,124.7025
Maguindanao,Guindulungan,6.96583,124.34806
Maguindanao,Kabuntalan,7.11667,124.38333
Maguindanao,Mamasapano,6.97194,124.48111
Maguindanao,Mangudadatu,6.6875,124.825
Maguindanao,Matanog,7.467,124.25
Maguindanao,Northern Kabuntalan,7.13333,124.46667
Maguindanao,Pagalungan,7.057,124.701
Maguindanao,Paglat,6.7,124.78333
Maguindanao,Pandag,6.78333,124.8
Maguindanao,Parang,7.33333,124.31667
Maguindanao,Rajah Buayan,6.91083,124.55083
Maguindanao,Shariff Aguak,6.86472,124.44167
Maguindanao,Shariff Saydona Mustapha,6.9666694,124.5
Maguindanao,South Upi,6.8548444,124.1443028
Maguindanao,Sultan Kudarat,7.233,124.25
Maguindanao,Sultan Mastura,7.283,124.3
Maguindanao,Sultan sa Barongis,6.8,124.63333
Maguindanao,Talayan,6.96667,124.41667
Maguindanao,Talitay,6.99667,124.70528
Maguindanao,Upi,7.02889,124.165
Marinduque,Boac,13.45,121.833
Marinduque,Buenavista,13.25389,121.94361
Marinduque,Gasan,13.317,121.85
Marinduque,Mogpog,13.47444,121.86139
Marinduque,Santa Cruz,13.47667,122.02667
Marinduque,Torrijos,13.317,122.083
Masbate,Masbate City,12.17,123.58
Masbate,Aroroy,12.5,123.4
Masbate,Baleno,12.467,123.483
Masbate,Balud,12.033,123.2
Masbate,Batuan,12.417,123.767
Masbate,Cataingan,12.0,123.983
Masbate,Cawayan,12.033,123.683
Masbate,Claveria,12.9,123.25
Masbate,Dimasalang,12.183,123.867
Masbate,Esperanza,11.733,124.05
Masbate,Mandaon,12.233,123.283
Masbate,Milagros,12.233,123.5
Masbate,Mobo,12.333,123.65
Masbate,Monreal,12.633,123.667
Masbate,Palanas,12.15,123.917
Masbate,Pio V. Corpuz,11.9,124.033
Masbate,Placer,11.867,123.917
Masbate,San Fernando,12.483,123.75
Masbate,San Jacinto,12.567,123.733
Masbate,San Pascual,13.133,122.983
Masbate,Uson,12.217,123.783
Metro Manila,Caloocan,14.65,120.97
Metro Manila,Las Piñas,14.45,120.98
Metro Manila,Makati,14.55,121.03
Metro Manila,Malabon,14.66,120.96
Metro Manila,Mandaluyong,14.58,121.03
Metro Manila,Manila,14.58,121.0
Metro Manila,Marikina,14.65,121.1
Metro Manila,Muntinlupa,14.38,121.05
Metro Manila,Navotas,14.6667,120.9417
Metro Manila,Parañaque,14.47,121.02
Metro Manila,Pasay,14.55,121.0
Metro Manila,Pasig,,
Metro Manila,Quezon City,14.63,121.03
Metro Manila,San Juan City,14.6,121.03
Metro Manila,Taguig,14.52,121.05
Metro Manila,Valenzuela City,,
Metro Manila,Pateros,14.5417,121.0667
Misamis Occidental,Oroquieta City,8.483,123.8
Misamis Occidental,Ozamiz City,8.15,123.85
Misamis Occidental,Tangub City,8.067,123.75
Misamis Occidental,Aloran,8.417,123.817
Misamis Occidental,Baliangao,8.667,123.6
Misamis Occidental,Bonifacio,8.1,123.6
Misamis Occidental,Calamba,8.55833,123.64167
Misamis Occidental,Clarin,8.2,123.85
Misamis Occidental,Concepcion,8.417,123.6
Misamis Occidental,Don Victoriano Chiongbian,8.3,123.583
Misamis Occidental,Jimenez,8.333,123.833
Misamis Occidental,Lopez Jaena,8.55,123.767
Misamis Occidental,Panaon,8.367,123.833
Misamis Occidental,Plaridel,8.617,123.7
Misamis Occidental,Sapang Dalaga,8.55,123.567
Misamis Occidental,Sinacaban,8.283,123.733
Misamis Occidental,Tudela,8.25,123.833
Misamis Oriental,Cagayan de Oro,8.48,124.65
Misamis Oriental,Gingoog City,8.817,125.1
Misamis Oriental,Alubijid,8.567,124.467
Misamis Oriental,Balingasag,8.75,124.783
Misamis Oriental,Balingoan,9.0,124.85
Misamis Oriental,Binuangan,8.917,124.8
Misamis Oriental,Claveria,8.617,124.883
Misamis Oriental,El Salvador,8.567,124.517
Misamis Oriental,Gitagum,8.6,124.4
Misamis Oriental,Initao,8.5,124.317
Misamis Oriental,Jasaan,8.65,124.75
Misamis Oriental,Kinoguitan,8.983,124.817
Misamis Oriental,Lagonglong,8.8,124.783
Misamis Oriental,Laguindingan,8.583,124.45
Misamis Oriental,Libertad,8.55833,124.35
Misamis Oriental,Lugait,8.333,124.267
Misamis Oriental,Magsaysay,9.017,125.183
Misamis Oriental,Manticao,8.383,124.283
Misamis Oriental,Medina,8.917,125.017
Misamis Oriental,Naawan,8.433,124.3
Misamis Oriental,Opol,8.517,124.567
Misamis Oriental,Salay,8.867,124.8
Misamis Oriental,Sugbongcogon,8.95,124.783
Misamis Oriental,Tagoloan,8.533,124.75
Misamis Oriental,Talisayan,8.99167,124.88333
Misamis Oriental,Villanueva,8.583,124.783
Mountain Province,Barlig,17.083,121.15
Mountain Province,Bauko,16.983,120.867
Mountain Province,Besao,17.1,120.817
Mountain Province,Bontoc,17.08722,120.97556
Mountain Province,Natonin,17.1,121.283
Mountain Province,Paracelis,17.267,121.467
Mountain Province,Sabangan,16.95,120.917
Mountain Province,Sadanga,17.167,121.033
Mountain Province,Sagada,17.083,120.9
Mountain Province,Tadian,17.0,120.817
Negros Occidental,Bacolod City,10.67,122.95
Negros Occidental,Bago City,10.533,122.833
Negros Occidental,Cadiz City,10.95,123.3
Negros Occidental,Escalante City,10.833,123.5
Negros Occidental,Himamaylan City,10.1,122.867
Negros Occidental,Kabankalan City,9.983,122.817
Negros Occidental,La Carlota City,,
Negros Occidental,Sagay City,10.9,123.417
Negros Occidental,San Carlos City,10.42,123.38
Negros Occidental,Silay City,10.8,122.967
Negros Occidental,Sipalay City,9.75,122.4
Negros Occidental,Talisay City,10.733,122.967
Negros Occidental,Victorias City,10.9,123.083
Negros Occidental,Binalbagan,10.2,122.867
Negros Occidental,Calatrava,10.6,123.483
Negros Occidental,Candoni,9.8310444,122.6429806
Negros Occidental,Cauayan,9.967,122.617
Negros Occidental,Enrique B. Magalona,10.883,122.967
Negros Occidental,Hinigaran,10.267,122.85
Negros Occidental,Hinoba-an,9.583,122.467
Negros Occidental,Ilog,10.033,122.767
Negros Occidental,Isabela,10.2,122.983
Negros Occidental,La Castellana,10.35,123.067
Negros Occidental,Manapla,10.95,123.12
Negros Occidental,Moises Padilla,10.267,123.083
Negros Occidental,Murcia,10.6,123.03
Negros Occidental,Pontevedra,10.367,122.883
Negros Occidental,Pulupandan,10.517,122.8
Negros Occidental,Salvador Benedicto,10.55,123.233
Negros Occidental,San Enrique,10.417,122.85
Negros Occidental,Toboso,10.717,123.517
Negros Occidental,Valladolid,10.467,122.833
Negros Oriental,Bais City,9.583,123.117
Negros Oriental,Bayawan City,9.367,122.8
Negros Oriental,Canlaon City,10.383,123.2
Negros Oriental,Guihulngan City,10.117,123.267
Negros Oriental,Dumaguete City,9.317,123.3
Negros Oriental,Tanjay City,9.517,123.1583
Negros Oriental,Amlan,9.45,123.233
Negros Oriental,Ayungon,9.85,123.133
Negros Oriental,Bacong,9.25,123.283
Negros Oriental,Basay,9.417,122.633
Negros Oriental,Bindoy,9.767,123.133
Negros Oriental,Dauin,9.2,123.267
Negros Oriental,Jimalalud,9.983,123.2
Negros Oriental,La Libertad,10.033,123.217
Negros Oriental,Mabinay,9.733,122.917
Negros Oriental,Manjuyod,9.683,123.15
Negros Oriental,Pamplona,9.467,123.117
Negros Oriental,San Jose,9.417,123.233
Negros Oriental,Santa Catalina,9.333,122.867
Negros Oriental,Siaton,9.067,123.033
Negros Oriental,Sibulan,9.35,123.283
Negros Oriental,Tayasan,9.917,123.15
Negros Oriental,Valencia,9.283,123.25
Negros Oriental,Vallehermoso,10.333,123.317
Negros Oriental,Zamboanguita,9.117,123.2
Northern Samar,Allen,12.5,124.283
Northern Samar,Biri,12.667,124.383
Northern Samar,Bobon,12.517,124.567
Northern Samar,Capul,12.417,124.183
Northern Samar,Catarman,12.45,124.65
Northern Samar,Catubig,12.4,125.05
Northern Samar,Gamay,12.383,125.3
Northern Samar,Laoang,12.567,125.017
Northern Samar,Lapinig,,
Northern Samar,Las Navas,,
Northern Samar,Lavezares,12.533,124.333
Northern Samar,Lope de Vega,12.3,124.617
Northern Samar,Mapanas,,
Northern Samar,Mondragon,12.517,124.75
Northern Samar,Palapag,,
Northern Samar,Pambujan,12.567,124.933
Northern Samar,Rosario,12.517,124.417
Northern Samar,San Antonio,12.417,124.267
Northern Samar,San Isidro,,
Northern Samar,San Jose,,
Northern Samar,San Roque,,
Northern Samar,San Vicente,12.35,124.05
Northern Samar,Silvino Lobos,12.3,124.833
Northern Samar,Victoria,12.45,124.317
Nueva Ecija,Cabanatuan City,15.48,120.97
Nueva Ecija,Gapan City,15.283,120.967
Nueva Ecija,Science City of Muñoz,15.717,120.9
Nueva Ecija,Palayan City,15.533,121.083
Nueva Ecija,San Jose City,15.783,121.0
Nueva Ecija,Aliaga,15.5,120.84389
Nueva Ecija,Bongabon,15.63111,121.14389
Nueva Ecija,Cabiao,15.25,120.85
Nueva Ecija,Carranglan,15.967,121.067
Nueva Ecija,Cuyapo,15.783,120.667
Nueva Ecija,Gabaldon,15.533,121.317
Nueva Ecija,General Mamerto Natividad,15.6,121.05
Nueva Ecija,General Tinio,15.35,121.05
Nueva Ecija,Guimba,15.65806,120.76889
Nueva Ecija,Jaen,15.333,120.9
Nueva Ecija,Laur,15.583,121.183
Nueva Ecija,Licab,15.55,120.767
Nueva Ecija,Llanera,15.667,121.017
Nueva Ecija,Lupao,15.883,120.9
Nueva Ecija,Nampicuan,15.733,120.633
Nueva Ecija,Pantabangan,15.817,121.15
Nueva Ecija,Peñaranda,15.35,121.0
Nueva Ecija,Quezon,15.55,120.817
Nueva Ecija,Rizal,15.683,121.167
Nueva Ecija,San Antonio,15.383,120.8
Nueva Ecija,San Isidro,15.267,120.9
Nueva Ecija,San Leonardo,15.367,120.967
Nueva Ecija,Santa Rosa,15.42389,120.93889
Nueva Ecija,Santo Domingo,15.583,120.867
Nueva Ecija,Talavera,15.583,120.917
Nueva Ecija,Talugtug,15.77889,120.81111
Nueva Ecija,Zaragoza,15.45306,120.79111
Nueva Vizcaya,Alfonso Castaneda,15.8,121.3
Nueva Vizcaya,Ambaguio,16.517,121.017
Nueva Vizcaya,Aritao,16.3,121.033
Nueva Vizcaya,Bagabag,16.6,121.267
Nueva Vizcaya,Bambang,16.383,121.117
Nueva Vizcaya,Bayombong,16.483,121.15
Nueva Vizcaya,Diadi,16.633,121.35
Nueva Vizcaya,Dupax del Norte,16.28639,121.09417
Nueva Vizcaya,Dupax del Sur,16.283,121.1
Nueva Vizcaya,Kasibu,16.317,121.283
Nueva Vizcaya,Kayapa,16.417,120.917
Nueva Vizcaya,Quezon,16.5,121.267
Nueva Vizcaya,Santa Fe,16.16194,120.93889
Nueva Vizcaya,Solano,16.52389,121.19194
Nueva Vizcaya,Villaverde,16.583,121.2
Occidental Mindoro,Abra de Ilog,13.45,120.733
Occidental Mindoro,Calintaan,12.57556,120.94278
Occidental Mindoro,Looc,13.72167,120.25056
Occidental Mindoro,Lubang,13.85778,120.12333
Occidental Mindoro,Magsaysay,12.333,121.15
Occidental Mindoro,Mamburao,13.217,120.6
Occidental Mindoro,Paluan,13.417,120.467
Occidental Mindoro,Rizal,12.467,120.967
Occidental Mindoro,Sablayan,12.817,120.767
Occidental Mindoro,San Jose,12.35,121.067
Occidental Mindoro,Santa Cruz,13.117,120.85
Oriental Mindoro,Calapan City,13.4,121.183
Oriental Mindoro,Baco,13.4125,121.12861
Oriental Mindoro,Bansud,12.833,121.367
Oriental Mindoro,Bongabong,12.717,121.367
Oriental Mindoro,Bulalacao,12.333,121.35
Oriental Mindoro,Gloria,12.917,121.467
Oriental Mindoro,Mansalay,12.517,121.433
Oriental Mindoro,Naujan,13.317,121.3
Oriental Mindoro,Pinamalayan,13.0,121.417
Oriental Mindoro,Pola,13.14389,121.44
Oriental Mindoro,Puerto Galera,13.5,120.95
Oriental Mindoro,Roxas,12.583,121.5
Oriental Mindoro,San Teodoro,13.433,121.017
Oriental Mindoro,Socorro,13.067,121.4
Oriental Mindoro,Victoria,13.367,121.2
Palawan,Puerto Princesa City,9.75,118.75
Palawan,Aborlan,9.433,118.55
Palawan,Agutaya,11.15,120.95
Palawan,Araceli,10.333,119.6
Palawan,Balabac,7.983,117.05
Palawan,Bataraza,8.667,117.617
Palawan,Brookes Point,,
Palawan,Busuanga,12.167,119.95
Palawan,Cagayancillo,9.48194,121.03611
Palawan,Coron,12.0,120.2
Palawan,Culion,11.83528,119.99333
Palawan,Cuyo,10.85,121.017
Palawan,Dumaran,10.533,119.767
Palawan,El Nido,11.333,119.683
Palawan,Kalayaan,11.05,114.283
Palawan,Linapacan,11.5,119.867
Palawan,Magsaysay,10.867,121.05
Palawan,Narra,9.283,118.417
Palawan,Quezon,9.233,118.033
Palawan,Rizal,8.683,117.35
Palawan,Roxas,10.333,119.333
Palawan,San Vicente,10.533,119.283
Palawan,Sofronio Española,9.05,118.033
Palawan,Taytay,10.817,119.517
Pampanga,Angeles City,15.15,120.58
Pampanga,City of San Fernando,15.033,120.683
Pampanga,Apalit,14.95,120.767
Pampanga,Arayat,15.15,120.767
Pampanga,Bacolor,15.0,120.65
Pampanga,Candaba,15.09333,120.82833
Pampanga,Floridablanca,14.933,120.5
Pampanga,Guagua,14.967,120.633
Pampanga,Lubao,14.933,120.6
Pampanga,Mabalacat,15.217,120.583
Pampanga,Macabebe,14.90806,120.71556
Pampanga,Magalang,15.217,120.667
Pampanga,Masantol,14.9,120.717
Pampanga,Mexico,15.067,120.717
Pampanga,Minalin,14.967,120.683
Pampanga,Porac,15.07194,120.54194
Pampanga,San Luis,15.04,120.79194
Pampanga,San Simon,14.99306,120.77694
Pampanga,Santa Ana,15.09389,120.76806
Pampanga,Santa Rita,14.99528,120.61528
Pampanga,Santo Tomas,14.967,120.717
Pampanga,Sasmuan,14.933,120.617
Pangasinan,Alaminos City,16.16028,119.98028
Pangasinan,Dagupan City,16.03,120.33
Pangasinan,San Carlos City,15.92806,120.34889
Pangasinan,Urdaneta City,15.97611,120.57111
Pangasinan,Agno,16.117,119.8
Pangasinan,Aguilar,15.833,120.2
Pangasinan,Alcala,15.84722,120.52417
Pangasinan,Anda,16.283,119.967
Pangasinan,Asingan,16.0,120.667
Pangasinan,Balungao,15.9,120.7
Pangasinan,Bani,16.2,119.85
Pangasinan,Basista,15.85,120.4
Pangasinan,Bautista,15.783,120.5
Pangasinan,Bayambang,15.81056,120.45472
Pangasinan,Binalonan,16.05,120.6
Pangasinan,Binmaley,16.033,120.267
Pangasinan,Bolinao,16.333,119.883
Pangasinan,Bugallon,15.917,120.183
Pangasinan,Burgos,16.04639,119.85667
Pangasinan,Calasiao,16.017,120.367
Pangasinan,Dasol,15.98972,119.88056
Pangasinan,Infanta,15.817,119.9
Pangasinan,Labrador,16.0,120.117
Pangasinan,Laoac,16.033,120.55
Pangasinan,Lingayen,16.02,120.23083
Pangasinan,Mabini,16.06972,119.94
Pangasinan,Malasiqui,15.917,120.417
Pangasinan,Manaoag,16.04389,120.48556
Pangasinan,Mangaldan,16.067,120.4
Pangasinan,Mangatarem,15.783,120.3
Pangasinan,Mapandan,16.017,120.45
Pangasinan,Natividad,16.05,120.817
Pangasinan,Pozzorubio,16.117,120.55
Pangasinan,Rosales,15.883,120.633
Pangasinan,San Fabian,16.15,120.45
Pangasinan,San Jacinto,16.0725,120.44111
Pangasinan,San Manuel,16.067,120.667
Pangasinan,San Nicolas,16.07,120.76528
Pangasinan,San Quintin,15.98444,120.815
Pangasinan,Santa Barbara,16.00306,120.40083
Pangasinan,Santa Maria,15.98083,120.70028
Pangasinan,Santo Tomas,15.71194,120.58472
Pangasinan,Sison,16.15694,120.52222
Pangasinan,Sual,16.067,120.1
Pangasinan,Tayug,16.02361,120.74778
Pangasinan,Umingan,15.9,120.8
Pangasinan,Urbiztondo,15.817,120.35
Pangasinan,Villasis,15.9,120.583
Quezon,Lucena City,,
Quezon,Tayabas City,14.017,121.583
Quezon,Agdangan,13.867,121.917
Quezon,Alabat,14.1,122.017
Quezon,Atimonan,14.0,121.917
Quezon,Buenavista,13.73944,122.4675
Quezon,Burdeos,14.84361,121.96972
Quezon,Calauag,13.9575,122.2875
Quezon,Candelaria,13.93111,121.42333
Quezon,Catanauan,13.59167,122.325
Quezon,Dolores,14.09417,121.33139
Quezon,General Luna,13.68806,122.17083
Quezon,General Nakar,14.767,121.617
Quezon,Guinayangan,13.9,122.45
Quezon,Gumaca,13.917,122.1
Quezon,Infanta,14.7425,121.64944
Quezon,Jomalig,14.7125,122.36972
Quezon,Lopez,13.883,122.267
Quezon,Lucban,14.11333,121.55694
Quezon,Macalelon,13.75,122.133
Quezon,Mauban,14.183,121.717
Quezon,Mulanay,13.5,122.417
Quezon,Padre Burgos,13.917,121.8
Quezon,Pagbilao,13.967,121.7
Quezon,Panukulan,14.933,121.817
Quezon,Patnanungan,14.783,122.183
Quezon,Perez,14.183,121.933
Quezon,Pitogo,13.783,122.083
Quezon,Plaridel,13.95,122.017
Quezon,Polillo,14.717,121.95
Quezon,Quezon,14.05,122.133
Quezon,Real,14.667,121.6
Quezon,Sampaloc,14.167,121.583
Quezon,San Andres,13.367,122.65
Quezon,San Antonio,13.9,121.3
Quezon,San Francisco,13.25,122.583
Quezon,San Narciso,13.57,122.565
Quezon,Sariaya,13.967,121.533
Quezon,Tagkawayan,13.967,122.533
Quezon,Tiaong,13.95,121.317
Quezon,Unisan,13.833,121.983
Quirino,Aglipay,16.467,121.65
Quirino,Cabarroguis,16.583,121.5
Quirino,Diffun,16.6,121.467
Quirino,Maddela,16.35,121.7
Quirino,Nagtipunan,16.217,121.6
Quirino,Saguday,16.517,121.6
Rizal,Antipolo City,14.583,121.167
Rizal,Angono,14.533,121.15
Rizal,Baras,14.517,121.267
Rizal,Binangonan,14.45139,121.19194
Rizal,Cainta,14.567,121.117
Rizal,Cardona,14.48611,121.22889
Rizal,Jalajala,14.35306,121.32222
Rizal,Morong,14.51194,121.23889
Rizal,Pililla,14.483,121.3
Rizal,Rodriguez,14.717,121.117
Rizal,San Mateo,14.717,121.117
Rizal,Tanay,14.5,121.283
Rizal,Taytay,14.567,121.133
Rizal,Teresa,14.567,121.2
Romblon,Alcantara,12.267,122.05
Romblon,Banton,12.95,122.08
Romblon,Cajidiocan,12.367,122.683
Romblon,Calatrava,12.617,122.067
Romblon,Concepcion,12.925,121.7083
Romblon,Corcuera,12.8,122.05
Romblon,Ferrol,12.333,121.95
Romblon,Looc,12.267,122.0
Romblon,Magdiwang,12.483,122.517
Romblon,Odiongan,12.4,122.0
Romblon,Romblon,12.567,122.267
Romblon,San Agustin,,
Romblon,San Andres,12.517,122.017
Romblon,San Fernando,12.317,122.6
Romblon,San Jose,12.067,121.933
Romblon,Santa Fe,12.15,122.0
Romblon,Santa Maria,12.45,122.1
Samar,Calbayog City,12.07,124.6
Samar,Catbalogan City,11.783,124.883
Samar,Almagro,11.917,124.283
Samar,Basey,11.283,125.067
Samar,Calbiga,11.633,125.017
Samar,Daram,11.633,124.783
Samar,Gandara,12.017,124.817
Samar,Hinabangan,11.7,125.067
Samar,Jiabong,11.767,124.95
Samar,Marabut,11.117,125.217
Samar,Matuguinao,12.15,124.883
Samar,Motiong,11.783,125.0
Samar,Pagsanghan,11.967,124.8
Samar,Paranas,11.85,125.117
Samar,Pinabacdao,11.617,124.983
Samar,San Jorge,11.983,124.817
Samar,San Jose De Buan,12.05,125.07
Samar,San Sebastian,11.7,125.017
Samar,Santa Margarita,12.033,124.667
Samar,Santa Rita,11.467,124.95
Samar,Santo Niño,11.93889,124.41944
Samar,Tagapul-an,12.05,124.15
Samar,Talalora,11.517,124.85
Samar,Tarangnan,11.9,124.75
Samar,Villareal,11.567,124.933
Samar,Zumarraga,11.633,124.85
Sarangani,Alabel,6.083,125.283
Sarangani,Glan,5.817,125.2
Sarangani,Kiamba,5.983,124.617
Sarangani,Maasim,5.867,125.0
Sarangani,Maitum,6.033,124.483
Sarangani,Malapatan,5.967,125.283
Sarangani,Malungon,6.267,125.283
Siquijor,Enrique Villanueva,9.25,123.65
Siquijor,Larena,9.25,123.6
Siquijor,Lazi,9.13,123.63
Siquijor,Maria,9.2,123.65
Siquijor,San Juan,9.17,123.5
Siquijor,Siquijor,9.22,123.52
Sorsogon,Sorsogon City,12.97,124.0
Sorsogon,Barcelona,12.867,124.133
Sorsogon,Bulan,12.667,123.883
Sorsogon,Bulusan,12.75,124.117
Sorsogon,Casiguran,12.867,124.017
Sorsogon,Castilla,12.95,123.883
Sorsogon,Donsol,12.917,123.6
Sorsogon,Gubat,12.917,124.117
Sorsogon,Irosin,12.7,124.033
Sorsogon,Juban,12.85,123.983
Sorsogon,Magallanes,12.833,123.85
Sorsogon,Matnog,12.583,124.083
Sorsogon,Pilar,12.933,123.683
Sorsogon,Prieto Diaz,13.033,124.183
Sorsogon,Santa Magdalena,12.65,124.1
South Cotabato,General Santos City,6.12,125.17
South Cotabato,Koronadal City,6.5,124.85
South Cotabato,Banga,6.3,124.783
South Cotabato,Lake Sebu,6.217,124.7
South Cotabato,Norala,6.55,124.667
South Cotabato,Polomolok,6.217,125.067
South Cotabato,Santo Niño,6.433,124.683
South Cotabato,Surallah,6.367,124.733
South Cotabato,Tboli,,
South Cotabato,Tampakan,6.45,124.933
South Cotabato,Tantangan,6.617,124.75
South Cotabato,Tupi,6.333,124.95
Southern Leyte,Maasin City,10.133,124.85
Southern Leyte,Anahawan,10.283,125.25
Southern Leyte,Bontoc,10.35,124.967
Southern Leyte,Hinunangan,10.4,125.2
Southern Leyte,Hinundayan,10.35,125.25
Southern Leyte,Libagon,10.3,125.05
Southern Leyte,Liloan,10.15,125.133
Southern Leyte,Limasawa,9.93333,125.07222
Southern Leyte,Macrohon,10.083,124.95
Southern Leyte,Malitbog,10.15,125.0
Southern Leyte,Padre Burgos,10.033,125.017
Southern Leyte,Pintuyan,9.95,125.25
Southern Leyte,Saint Bernard,10.283,125.133
Southern Leyte,San Francisco,10.067,125.167
Southern Leyte,San Juan,10.267,125.183
Southern Leyte,San Ricardo,9.917,125.283
Southern Leyte,Silago,10.533,125.15
Southern Leyte,Sogod,10.383,124.983
Southern Leyte,Tomas Oppus,10.25,124.983
Sultan Kudarat,Tacurong City,6.683,124.667
Sultan Kudarat,Bagumbayan,6.533,124.567
Sultan Kudarat,Columbio,6.7,124.933
Sultan Kudarat,Esperanza,6.717,124.517
Sultan Kudarat,Isulan,6.633,124.6
Sultan Kudarat,Kalamansig,6.567,124.05
Sultan Kudarat,Lambayong,6.8,124.633
Sultan Kudarat,Lebak,6.633,124.067
Sultan Kudarat,Lutayan,6.6,124.85
Sultan Kudarat,Palimbang,6.217,124.2
Sultan Kudarat,President Quirino,6.7,124.733
Sultan Kudarat,Senator Ninoy Aquino,6.467,124.333
Sulu,Banguingui,6.067,121.783
Sulu,Hadji Panglima Tahil,6.167,120.917
Sulu,Indanan,6.067,121.783
Sulu,Jolo,6.05,121.0
Sulu,Kalingalan Caluang,5.883,121.267
Sulu,Lugus,5.7,120.817
Sulu,Luuk,6.0,121.35
Sulu,Maimbung,5.933,121.033
Sulu,Old Panamao,5.983,121.25
Sulu,Omar,5.983,121.4
Sulu,Pandami,5.533,120.75
Sulu,Panglima Estino,5.967,121.2
Sulu,Pangutaran,6.3,120.583
Sulu,Parang,5.917,120.917
Sulu,Pata,5.833,121.083
Sulu,Patikul,6.067,121.1
Sulu,Siasi,5.55,120.817
Sulu,Talipao,5.933,121.1
Sulu,Tapul,5.717,120.9
Surigao del Norte,Surigao City,9.78,125.48
Surigao del Norte,Alegria,9.467,125.583
Surigao del Norte,Bacuag,9.6,125.633
Surigao del Norte,Basilisa,10.067,125.6
Surigao del Norte,Burgos,10.017,126.067
Surigao del Norte,Cagdianao,9.917,125.667
Surigao del Norte,Claver,9.567,125.733
Surigao del Norte,Dapa,9.767,126.05
Surigao del Norte,Del Carmen,9.867,125.967
Surigao del Norte,Dinagat,9.95,125.617
Surigao del Norte,General Luna,9.8,126.133
Surigao del Norte,Gigaquit,9.583,125.7
Surigao del Norte,Libjo,10.2,125.567
Surigao del Norte,Loreto,10.35,125.617
Surigao del Norte,Mainit,9.533,125.517
Surigao del Norte,Malimono,9.617,125.4
Surigao del Norte,Pilar,9.867,126.1
Surigao del Norte,Placer,9.65,125.6
Surigao del Norte,San Benito,9.95,126.017
Surigao del Norte,San Francisco,9.733,125.417
Surigao del Norte,San Isidro,9.933,126.083
Surigao del Norte,San Jose,10.00833,125.58889
Surigao del Norte,Santa Monica,10.01944,126.03889
Surigao del Norte,Sison,9.667,125.533
Surigao del Norte,Socorro,9.633,125.95
Surigao del Norte,Tagana-an,9.7,125.583
Surigao del Norte,Tubajon,10.3,125.567
Surigao del Norte,Tubod,9.567,125.567
Surigao del Sur,Bislig City,8.183,126.35
Surigao del Sur,Tandag City,9.067,126.183
Surigao del Sur,Barobo,8.55,126.2
Surigao del Sur,Bayabas,8.967,126.267
Surigao del Sur,Cagwait,8.917,126.3
Surigao del Sur,Cantilan,9.333,125.983
Surigao del Sur,Carmen,9.217,125.967
Surigao del Sur,Carrascal,9.367,125.933
Surigao del Sur,Cortes,9.233,126.167
Surigao del Sur,Hinatuan,8.367,126.333
Surigao del Sur,Lanuza,9.233,126.067
Surigao del Sur,Lianga,8.633,126.1
Surigao del Sur,Lingig,8.033,126.417
Surigao del Sur,Madrid,9.267,125.967
Surigao del Sur,Marihatag,8.8,126.3
Surigao del Sur,San Agustin,8.733,126.133
Surigao del Sur,San Miguel,8.883,126.0
Surigao del Sur,Tagbina,8.45,126.167
Surigao del Sur,Tago,8.967,126.15
Tarlac,Tarlac City,15.467,120.583
Tarlac,Anao,15.72889,120.62611
Tarlac,Bamban,15.283,120.567
Tarlac,Camiling,15.7,120.417
Tarlac,Capas,15.3275,120.59083
Tarlac,Concepcion,15.317,120.65
Tarlac,Gerona,15.6,120.6
Tarlac,La Paz,15.44306,120.72889
Tarlac,Mayantoc,15.617,120.383
Tarlac,Moncada,15.733,120.567
Tarlac,Paniqui,15.667,120.583
Tarlac,Pura,15.625,120.65
Tarlac,Ramos,15.66667,120.64167
Tarlac,San Clemente,15.717,120.367
Tarlac,San Jose,15.4,120.333
Tarlac,San Manuel,15.833,120.583
Tarlac,Santa Ignacia,15.617,120.433
Tarlac,Victoria,15.57806,120.68194
Tawi-Tawi,Bongao,5.033,119.767
Tawi-Tawi,Languyan,5.267,120.083
Tawi-Tawi,Mapun,7.0,118.5
Tawi-Tawi,Panglima Sugala,5.183,120.017
Tawi-Tawi,Sapa-Sapa,5.075,120.175
Tawi-Tawi,Sibutu,4.683,119.467
Tawi-Tawi,Simunul,4.9,119.833
Tawi-Tawi,Sitangkai,4.667,119.4
Tawi-Tawi,South Ubian,5.183,120.483
Tawi-Tawi,Tandubas,5.25,120.283
Tawi-Tawi,Turtle Islands,6.083,118.317
Zambales,Olongapo City,14.83,120.28
Zambales,Botolan,15.283,120.017
Zambales,Cabangan,15.133,120.15
Zambales,Candelaria,15.633,119.933
Zambales,Castillejos,14.933,120.2
Zambales,Iba,15.333,119.983
Zambales,Masinloc,15.533,119.95
Zambales,Palauig,15.433,120.05
Zambales,San Antonio,14.95,120.083
Zambales,San Felipe,15.06194,120.07
Zambales,San Marcelino,14.967,120.15
Zambales,San Narciso,15.017,120.083
Zambales,Santa Cruz,15.767,119.917
Zambales,Subic,14.9,120.233
Zamboanga del Norte,Dapitan City,8.65,123.417
Zamboanga del Norte,Dipolog City,8.567,123.333
Zamboanga del Norte,Bacungan,8.083,122.933
Zamboanga del Norte,Baliguian,7.817,122.25
Zamboanga del Norte,Godod,8.0,122.817
Zamboanga del Norte,Gutalac,7.983,122.4
Zamboanga del Norte,Jose Dalman,8.45,123.033
Zamboanga del Norte,Kalawit,7.933,122.533
Zamboanga del Norte,Katipunan,8.433,123.283
Zamboanga del Norte,La Libertad,8.45,123.5
Zamboanga del Norte,Labason,8.067,122.517
Zamboanga del Norte,Liloy,8.117,122.667
Zamboanga del Norte,Manukan,8.533,123.1
Zamboanga del Norte,Mutia,8.433,123.467
Zamboanga del Norte,Piñan,8.4,123.433
Zamboanga del Norte,Polanco,8.533,123.367
Zamboanga del Norte,President Manuel A. Roxas,8.483,123.217
Zamboanga del Norte,Rizal,8.583,123.533
Zamboanga del Norte,Salug,8.033,122.833
Zamboanga del Norte,Sergio Osmeña Sr.,8.267,123.383
Zamboanga del Norte,Siayan,8.133,123.1
Zamboanga del Norte,Sibuco,7.283,122.067
Zamboanga del Norte,Sibutad,8.6,123.467
Zamboanga del Norte,Sindangan,8.233,123.0
Zamboanga del Norte,Siocon,7.7,122.133
Zamboanga del Norte,Sirawai,7.583,122.133
Zamboanga del Norte,Tampilisan,8.017,122.683
Zamboanga del Sur,Pagadian City,7.83,123.43
Zamboanga del Sur,Zamboanga City,,
Zamboanga del Sur,Aurora,7.95,123.583
Zamboanga del Sur,Bayog,7.867,123.033
Zamboanga del Sur,Dimataling,7.533,123.367
Zamboanga del Sur,Dinas,7.633,123.3
Zamboanga del Sur,Dumalinao,7.817,123.367
Zamboanga del Sur,Dumingag,8.167,123.35
Zamboanga del Sur,Guipos,7.733,123.317
Zamboanga del Sur,Josefina,8.2,123.533
Zamboanga del Sur,Kumalarang,7.75,123.15
Zamboanga del Sur,Labangan,7.867,123.517
Zamboanga del Sur,Lakewood,7.85,123.167
Zamboanga del Sur,Lapuyan,7.633,123.2
Zamboanga del Sur,Mahayag,8.133,123.383
Zamboanga del Sur,Margosatubig,7.583,123.167
Zamboanga del Sur,Midsalip,8.0,123.267
Zamboanga del Sur,Molave,8.083,123.483
Zamboanga del Sur,Pitogo,7.45,123.317
Zamboanga del Sur,Ramon Magsaysay,8.0,123.483
Zamboanga del Sur,San Miguel,7.65,123.267
Zamboanga del Sur,San Pablo,7.65,123.45
Zamboanga del Sur,Sominot,8.017,123.367
Zamboanga del Sur,Tabina,7.467,123.417
Zamboanga del Sur,Tambulig,8.067,123.533
Zamboanga del Sur,Tigbao,7.817,123.283
Zamboanga del Sur,Tukuran,7.85,123.583
Zamboanga del Sur,Vincenzo A. Sagun,7.517,123.167
Zamboanga Sibugay,Alicia,7.50833,122.94167
Zamboanga Sibugay,Buug,7.733,123.067
Zamboanga Sibugay,Diplahan,7.717,123.017
Zamboanga Sibugay,Imelda,7.617,122.95
Zamboanga Sibugay,Ipil,7.783,122.583
Zamboanga Sibugay,Kabasalan,7.817,122.817
Zamboanga Sibugay,Mabuhay,7.417,122.9
Zamboanga Sibugay,Malangas,7.617,123.0
Zamboanga Sibugay,Naga,7.833,122.7
Zamboanga Sibugay,Olutanga,7.333,122.833
Zamboanga Sibugay,Payao,7.583,122.85
Zamboanga Sibugay,Roseller Lim,7.7,122.467
Zamboanga Sibugay,Siay,7.717,122.883
Zamboanga Sibugay,Talusan,7.333,122.883
Zamboanga Sibugay,Titay,7.85,122.55
Zamboanga Sibugay,Tungawan,7.5,122.367
